City ID,City,Country,City Date,Lat,Lng,Max Temp,Humidity,Clouds,Wind Speed
964420,port elizabeth,ZA,1593387511,-33.92,25.57,55.4,66,27,11.41
3440777,rocha,UY,1593387511,-34.48,-54.33,43.34,91,65,3.15
2094342,kavieng,PG,1593387511,-2.57,150.8,84.9,74,23,11.5
5879400,anchorage,US,1593387511,61.22,-149.9,59.0,54,75,6.93
5282297,bethel,US,1593387511,41.37,-73.41,73.0,88,40,6.93
3874787,punta arenas,CL,1593387511,-53.15,-70.92,30.2,86,27,8.05
2126123,chokurdakh,RU,1593387511,70.63,147.92,59.29,45,100,5.7
3726728,derac,HT,1593387511,19.65,-71.82,82.0,78,44,8.97
276781,beirut,LB,1593387500,33.89,35.49,75.2,88,0,10.29
1502697,kondinskoye,RU,1593387511,59.65,67.41,47.55,89,90,6.24
546105,nikolskoye,RU,1593387512,59.7,30.79,59.0,58,0,6.71
2654970,brae,GB,1593387512,60.4,-1.35,55.4,87,100,20.8
2264557,ponta do sol,PT,1593387512,32.67,-17.1,71.6,73,40,13.87
3405006,braganca,BR,1593387512,-1.05,-46.77,73.51,98,87,2.13
2255542,owando,CG,1593387512,-0.48,15.9,76.98,77,94,1.88
511359,pereslavl-zalesskiy,RU,1593387512,56.74,38.86,46.42,88,0,6.96
3833367,ushuaia,AR,1593387512,-54.8,-68.3,35.6,74,40,13.87
5106841,albany,US,1593387317,42.6,-73.97,72.0,91,63,6.38
3418910,upernavik,GL,1593387513,72.79,-56.15,40.21,74,0,11.72
2629833,husavik,IS,1593387513,66.04,-17.34,51.8,76,15,12.75
358620,safaga,EG,1593387513,26.73,33.94,87.8,20,0,9.17
2449893,tessalit,ML,1593387513,20.2,1.01,92.91,11,9,13.18
4020109,atuona,PF,1593387513,-9.8,-139.03,80.24,76,4,14.76
2729907,longyearbyen,SJ,1593387274,78.22,15.64,39.2,69,75,13.87
2208248,kaitangata,NZ,1593387513,-46.28,169.85,48.99,79,97,10.0
2396853,omboue,GA,1593387513,-1.57,9.26,72.09,84,10,6.82
3694112,paita,PE,1593387513,-5.09,-81.11,64.99,84,2,13.67
2444219,goure,NE,1593387514,13.98,10.27,89.01,45,89,3.0
4032243,vaini,TO,1593387514,-21.2,-175.2,78.8,88,75,10.29
2163355,hobart,AU,1593387221,-42.88,147.33,44.01,87,6,6.93
4035715,avarua,CK,1593387514,-21.21,-159.78,77.0,65,18,19.46
2123814,leningradskiy,RU,1593387514,69.38,178.42,31.8,98,82,4.27
6167817,torbay,CA,1593387514,47.67,-52.73,64.4,88,90,8.05
108648,qurayyat,SA,1593387514,31.33,37.34,73.4,43,0,11.41
4030556,rikitea,PF,1593387514,-23.12,-134.97,68.4,61,2,17.76
3351024,caluquembe,AO,1593387514,-13.78,14.68,50.94,44,0,0.89
1609278,laem sing,TH,1593387515,12.48,102.07,81.99,79,75,4.34
933995,souillac,MU,1593387515,-20.52,57.52,71.6,73,40,5.82
2332453,lagos,NG,1593387515,6.58,3.75,75.2,94,20,2.24
2033196,zhangjiakou,CN,1593387515,40.81,114.88,69.24,69,95,10.13
918905,chinsali,ZM,1593387515,-10.54,32.08,62.35,64,41,4.0
5924351,clyde river,CA,1593387515,70.47,-68.59,35.6,93,40,12.75
509926,petrovskiy,RU,1593387515,56.64,40.32,46.29,87,1,6.55
2206939,bluff,NZ,1593387516,-46.6,168.33,49.75,77,73,15.82
6170031,tuktoyaktuk,CA,1593387516,69.45,-133.04,48.2,81,40,6.93
2122090,pevek,RU,1593387516,69.7,170.31,31.84,99,100,15.59
1501460,kulunda,RU,1593387516,52.57,78.94,62.65,42,22,18.92
4013679,coahuayana,MX,1593387516,18.73,-103.68,77.0,83,75,23.04
2281120,tabou,CI,1593387516,4.42,-7.35,75.69,84,81,11.68
80509,bardiyah,LY,1593387516,31.76,25.09,70.9,85,0,14.0
3421982,maniitsoq,GL,1593387516,65.42,-52.9,41.2,86,16,14.97
3382160,cayenne,GF,1593387517,4.93,-52.33,77.0,100,20,9.01
3430863,mar del plata,AR,1593387225,-38.0,-57.56,48.0,93,82,3.36
3575660,pointe michel,DM,1593387517,15.25,-61.38,86.0,55,20,3.36
2514651,los llanos de aridane,ES,1593387517,28.66,-17.92,71.6,83,90,17.22
4944903,nantucket,US,1593387517,41.28,-70.1,71.01,93,90,10.29
2643044,margate,GB,1593387517,51.38,1.39,59.0,78,63,1.01
2155415,new norfolk,AU,1593387517,-42.78,147.06,43.0,91,7,2.33
4513583,hamilton,US,1593387517,39.18,-84.53,82.0,74,20,4.7
8079926,labuhan,ID,1593387517,-6.88,112.21,77.65,82,1,5.57
2276492,harper,LR,1593387517,4.38,-7.72,75.72,83,78,11.9
3652764,puerto ayora,EC,1593387518,-0.74,-90.35,72.0,88,91,4.0
1641977,kalianget,ID,1593387518,-7.05,113.93,80.83,76,48,8.63
2015306,tiksi,RU,1593387518,71.69,128.87,42.37,65,93,3.38
6201424,mataura,NZ,1593387518,-46.19,168.86,47.39,88,88,6.42
1524606,derzhavinsk,KZ,1593387518,51.1,66.32,54.28,79,97,5.55
2126710,beringovskiy,RU,1593387518,63.05,179.32,41.81,70,86,12.46
5742974,north bend,US,1593387518,43.41,-124.22,64.99,77,90,10.29
3662574,rio branco,BR,1593387518,-9.97,-67.81,69.8,100,75,3.36
2088163,popondetta,PG,1593387518,-8.75,148.25,84.76,64,88,1.39
3939761,hualmay,PE,1593387519,-11.1,-77.61,62.1,84,30,10.36
3404558,cabedelo,BR,1593387321,-6.98,-34.83,73.4,100,75,9.17
3144987,beisfjord,NO,1593387519,68.38,17.6,51.01,87,21,17.22
583345,aleksandrov gay,RU,1593387519,50.15,48.57,64.27,74,49,7.65
5557293,sitka,US,1593387519,57.05,-135.33,55.4,76,90,4.7
5880054,barrow,US,1593387519,71.29,-156.79,48.2,70,1,13.87
5848280,kapaa,US,1593387519,22.08,-159.32,86.0,66,1,10.29
3831208,qaanaaq,GL,1593387519,77.48,-69.36,43.39,62,0,1.16
1649150,bengkulu,ID,1593387471,-3.8,102.27,76.77,85,49,5.59
3443061,chuy,UY,1593387519,-33.7,-53.46,46.78,84,32,4.9
1283285,jumla,NP,1593387520,29.27,82.18,60.03,72,89,0.47
1794209,simao,CN,1593387520,22.79,100.97,67.71,95,99,1.81
2212775,sabha,LY,1593387520,27.04,14.43,82.49,22,0,10.33
964432,port alfred,ZA,1593387520,-33.59,26.89,59.0,65,8,5.99
1015776,bredasdorp,ZA,1593387244,-34.53,20.04,55.4,82,8,10.29
1712961,gigmoto,PH,1593387520,13.78,124.39,82.58,76,95,8.79
3386177,trairi,BR,1593387413,-3.28,-39.27,78.84,80,13,9.91
149418,tumbi,TZ,1593387520,-5.07,32.73,69.98,49,84,9.35
2137773,vao,NC,1593387520,-22.67,167.48,69.04,57,0,9.06
2192362,christchurch,NZ,1593387469,-43.53,172.63,46.0,93,100,12.75
3351663,benguela,AO,1593387521,-12.58,13.41,66.78,87,28,2.62
2146219,hervey bay,AU,1593387521,-25.3,152.85,63.0,81,6,8.01
3369157,cape town,ZA,1593387402,-33.93,18.42,57.0,82,75,5.82
5847411,kahului,US,1593387296,20.89,-156.47,91.4,43,40,18.34
3924679,vilhena,BR,1593387521,-12.74,-60.15,70.86,64,20,1.79
3424607,tasiilaq,GL,1593387521,65.61,-37.64,42.8,87,100,9.17
2092164,lorengau,PG,1593387521,-2.02,147.27,85.53,71,51,11.03
3372707,ribeira grande,PT,1593387521,38.52,-28.7,67.96,92,24,6.69
57000,hobyo,SO,1593387522,5.35,48.53,78.08,82,30,19.46
1185149,parbatipur,BD,1593387522,25.66,88.92,79.5,92,96,7.27
2074865,carnarvon,AU,1593387522,-24.87,113.63,68.0,72,6,6.93
6165406,thompson,CA,1593387522,55.74,-97.86,57.2,87,90,11.41
1735902,sibu,MY,1593387262,2.3,111.82,77.0,100,40,3.36
1499779,malinovoye ozero,RU,1593387522,51.68,79.78,61.41,40,0,13.11
6185377,yellowknife,CA,1593387302,62.46,-114.35,69.8,35,20,13.87
2075265,busselton,AU,1593387522,-33.65,115.33,54.0,68,59,27.45
2012956,yerbogachen,RU,1593387522,61.28,108.01,71.2,59,27,5.57
5367788,lompoc,US,1593387272,34.64,-120.46,66.2,63,50,14.99
3445026,vila velha,BR,1593387305,-20.33,-40.29,71.6,83,75,10.29
260895,karpathos,GR,1593387523,35.51,27.21,73.4,83,1,24.16
49747,xuddur,SO,1593387523,4.12,43.89,72.75,81,67,18.12
1735106,georgetown,MY,1593387379,5.41,100.34,84.2,88,20,1.12
2059470,victor harbor,AU,1593387523,-35.57,138.62,39.0,95,0,9.53
3984997,san quintin,MX,1593387523,30.48,-115.95,67.42,70,6,9.46
4021858,guerrero negro,MX,1593387523,27.98,-114.06,72.9,57,4,15.73
935215,saint-philippe,RE,1593387523,-21.36,55.77,68.0,72,40,8.05
1006984,east london,ZA,1593387523,-33.02,27.91,59.56,56,0,17.36
2121385,severo-kurilsk,RU,1593387523,50.68,156.12,52.95,64,100,2.77
3883457,lebu,CL,1593387524,-37.62,-73.65,52.52,90,71,10.85
3374210,sao filipe,CV,1593387524,14.9,-24.5,75.97,74,2,12.97
3366880,hermanus,ZA,1593387524,-34.42,19.23,55.0,84,32,4.0
6089245,norman wells,CA,1593387524,65.28,-126.83,75.2,27,40,2.77
2013279,vostok,RU,1593387524,46.49,135.88,65.43,61,97,1.86
2022572,khatanga,RU,1593387524,71.97,102.5,84.92,29,3,15.82
3361934,saldanha,ZA,1593387524,-33.01,17.94,55.4,87,60,3.36
333772,jimma,ET,1593387524,7.67,36.83,59.88,90,95,2.62
3583446,san miguel,SV,1593387524,13.48,-88.18,93.2,52,20,1.52
3513563,kralendijk,BQ,1593387524,12.15,-68.27,82.4,83,74,19.46
1568574,qui nhon,VN,1593387412,13.77,109.23,82.0,70,100,5.12
3035883,autun,FR,1593387525,46.95,4.3,60.8,82,90,2.24
1272140,dwarka,IN,1593387280,22.24,68.97,86.2,78,26,13.33
2962961,letterkenny,IE,1593387525,54.95,-7.73,55.0,92,100,13.47
5122534,jamestown,US,1593387242,42.1,-79.24,73.99,69,1,10.29
934479,grand gaube,MU,1593387525,-20.01,57.66,70.0,84,31,3.0
371745,kutum,SD,1593387525,14.2,24.67,81.32,31,95,3.85
3932145,pisco,PE,1593387525,-13.7,-76.22,62.6,82,75,13.87
1819729,victoria,HK,1593387286,22.29,114.16,87.01,79,20,4.7
2110227,butaritari,KI,1593387526,3.07,172.79,82.94,72,80,11.92
3456137,nova olimpia,BR,1593387526,-14.8,-57.29,71.85,67,9,2.35
4734350,stephenville,US,1593387526,32.22,-98.2,87.01,55,1,14.99
108410,riyadh,SA,1593387526,24.69,46.72,89.6,19,16,3.36
5546220,saint george,US,1593387316,37.1,-113.58,97.0,14,1,35.57
1106677,bambous virieux,MU,1593387526,-20.34,57.76,71.6,73,40,5.82
1282256,hithadhoo,MV,1593387526,-0.6,73.08,84.4,72,16,8.01
219414,basoko,CD,1593387526,1.24,23.62,72.52,89,96,1.23
2123278,milkovo,RU,1593387526,54.72,158.62,70.2,46,0,3.58
2274895,monrovia,LR,1593387526,6.3,-10.8,78.8,88,75,11.88
5962442,goderich,CA,1593387372,43.75,-81.72,69.01,78,0,7.43
4031574,provideniya,RU,1593387527,64.38,-173.3,41.0,80,90,15.66
3870282,talcahuano,CL,1593387527,-36.72,-73.12,53.6,87,90,10.29
1214488,meulaboh,ID,1593387527,4.14,96.13,77.14,86,81,4.83
218680,boende,CD,1593387527,-0.22,20.87,72.03,95,100,0.72
5855927,hilo,US,1593387527,19.73,-155.09,84.2,58,90,12.75
1489853,tazovskiy,RU,1593387527,67.47,78.7,59.36,90,95,18.32
3804949,guasdualito,VE,1593387527,7.24,-70.73,75.2,100,75,4.7
2017155,saskylakh,RU,1593387527,71.92,114.08,83.1,34,0,5.93
1507390,dikson,RU,1593387528,73.51,80.55,42.67,100,100,21.12
3416888,grindavik,IS,1593387528,63.84,-22.43,53.6,93,90,10.29
4408000,sedalia,US,1593387528,38.7,-93.23,88.0,58,20,11.41
3372760,praia da vitoria,PT,1593387528,38.73,-27.07,68.0,94,75,8.37
2263905,ribeira brava,PT,1593387528,32.65,-17.07,71.6,73,40,13.87
2173911,broken hill,AU,1593387528,-31.95,141.43,39.2,80,0,9.4
1784853,zhaoqing,CN,1593387528,23.05,112.46,84.99,99,95,1.92
2033536,yakeshi,CN,1593387528,49.28,120.73,68.31,62,43,10.49
2169535,dalby,AU,1593387278,-27.18,151.27,62.01,59,0,1.01
363885,waw,SS,1593387528,7.7,28.0,72.45,82,21,2.39
1526038,atbasar,KZ,1593387529,51.8,68.33,53.35,79,66,7.85
2219235,awbari,LY,1593387529,26.59,12.78,83.35,22,0,8.19
2180815,tuatapere,NZ,1593387529,-46.13,167.68,48.04,82,98,10.36
255498,perivolion,GR,1593387529,39.42,20.01,75.99,73,0,4.7
3471451,arraial do cabo,BR,1593387529,-22.97,-42.03,69.87,77,75,15.7
3985168,san patricio,MX,1593387529,19.22,-104.7,80.6,78,75,17.22
3393536,olinda,BR,1593387529,-8.01,-34.86,75.2,88,75,2.24
1812754,dingtao,CN,1593387529,35.07,115.56,78.44,61,63,11.12
3393692,itarema,BR,1593387529,-2.92,-39.92,78.62,81,22,12.95
2077895,alice springs,AU,1593387293,-23.7,133.88,42.8,48,0,8.5
1491230,sovetskiy,RU,1593387530,61.36,63.58,48.7,69,99,6.85
3419842,sisimiut,GL,1593387530,66.94,-53.67,41.27,82,16,8.08
1580830,hoa binh,VN,1593387530,20.81,105.34,84.2,79,75,5.82
3855075,general pico,AR,1593387530,-35.66,-63.76,45.73,69,86,10.98
5882953,aklavik,CA,1593387530,68.22,-135.01,68.0,34,20,10.29
779261,kjollefjord,NO,1593387530,70.95,27.35,42.89,82,93,9.33
4723422,rockport,US,1593387530,28.02,-97.05,87.8,70,75,17.22
509649,pichayevo,RU,1593387531,53.24,42.2,61.92,94,95,2.15
3526855,huixtla,MX,1593387277,15.15,-92.47,75.2,100,90,4.7
5445820,liberal,US,1593387531,37.04,-100.92,96.8,23,1,27.51
934322,mahebourg,MU,1593387531,-20.41,57.7,71.6,73,40,5.82
5969025,haines junction,CA,1593387531,60.75,-137.51,63.84,30,100,15.48
2112309,katsuura,JP,1593387531,35.13,140.3,79.0,73,20,3.36
2377457,nouadhibou,MR,1593387531,20.93,-17.03,71.6,73,32,20.8
5720495,coos bay,US,1593387531,43.37,-124.22,66.0,77,90,10.29
5866063,kenai,US,1593387531,60.55,-151.26,60.8,62,40,8.05
2459775,bougouni,ML,1593387531,11.42,-7.48,83.28,65,65,8.39
3460940,itacare,BR,1593387532,-14.28,-39.0,72.25,78,0,7.18
3614835,barra patuca,HN,1593387532,15.8,-84.28,81.05,81,70,10.87
102527,sakakah,SA,1593387532,29.97,40.21,86.0,19,0,8.05
3141667,roald,NO,1593387532,62.58,6.13,55.99,100,100,2.24
3466704,castro,BR,1593387532,-24.79,-50.01,47.97,95,77,5.97
5095779,bloomfield,US,1593387446,40.81,-74.19,75.0,83,1,8.37
1079048,ambovombe,MG,1593387532,-25.17,46.08,64.44,88,0,5.26
554806,izmalkovo,RU,1593387533,52.69,37.96,62.74,85,98,3.62
5301067,kingman,US,1593387506,35.19,-114.05,95.0,18,1,29.97
3129371,arroyo,ES,1593387533,41.61,-4.8,66.0,77,14,8.05
3894426,coihaique,CL,1593387428,-45.58,-72.07,32.0,95,90,5.82
3466950,carinhanha,BR,1593387533,-14.3,-43.77,73.98,47,12,6.62
2172153,casino,AU,1593387533,-28.87,153.05,55.99,87,7,8.05
5059429,grand forks,US,1593387533,47.93,-97.03,89.6,45,75,28.86
2181625,te anau,NZ,1593387533,-45.42,167.72,44.98,80,87,2.95
1852357,shimoda,JP,1593387533,34.67,138.95,78.01,83,40,3.36
935214,saint-pierre,RE,1593387533,-21.34,55.48,68.0,72,30,8.05
1490256,talnakh,RU,1593387534,69.49,88.4,73.4,49,22,17.9
3429594,reconquista,AR,1593387534,-29.15,-59.65,51.44,85,57,8.93
3974771,praxedis guerrero,MX,1593387534,31.37,-106.02,93.2,19,75,13.87
1812955,dezhou,CN,1593387534,37.45,116.29,76.66,69,64,5.19
251317,yimnon,GR,1593387534,38.43,23.88,73.99,51,0,4.7
3041732,maarianhamina,AX,1593387534,60.1,19.93,68.0,77,63,8.05
2145554,ulladulla,AU,1593387534,-35.35,150.47,52.0,93,40,4.7
141736,bam,IR,1593387534,29.11,58.36,89.71,21,81,2.93
2396518,port-gentil,GA,1593387534,-0.72,8.78,75.2,83,90,11.41
2160735,lakes entrance,AU,1593387534,-37.88,147.98,41.0,98,3,2.51
2121025,srednekolymsk,RU,1593387535,67.45,153.68,55.53,44,100,7.16
4421935,clarksdale,US,1593387535,34.2,-90.57,89.6,66,86,8.08
4947459,pittsfield,US,1593387297,42.45,-73.25,66.2,93,75,2.82
3855065,general roca,AR,1593387535,-39.03,-67.58,39.2,93,75,5.82
2127060,arman,RU,1593387535,59.7,150.17,57.27,67,73,5.21
2738381,lata,PT,1593387535,40.16,-8.33,66.99,86,14,3.33
777019,vardo,NO,1593387535,70.37,31.11,42.73,86,94,8.99
4333811,morgan city,US,1593387503,29.7,-91.21,86.0,83,20,12.75
240498,bangassou,CF,1593387535,4.74,22.82,69.78,94,75,1.54
2019867,mokhsogollokh,RU,1593387536,61.47,128.92,78.91,49,89,2.75
1525798,balkhash,KZ,1593387536,46.84,74.98,63.18,60,30,15.79
1488429,uray,RU,1593387536,60.12,64.78,48.69,87,88,7.31
2027042,batagay-alyta,RU,1593387536,67.8,130.41,66.27,54,46,7.54
5374376,monterey,US,1593387536,36.25,-121.25,73.99,19,0,5.01
1244926,hambantota,LK,1593387536,6.12,81.12,81.52,80,24,16.44
5894642,bassano,CA,1593387536,50.78,-112.47,55.99,82,88,5.99
1504382,kargasok,RU,1593387536,59.06,80.86,55.18,75,6,16.4
2162683,innisfail,AU,1593387537,-17.53,146.03,64.0,90,98,5.99
1519327,shakhtinsk,KZ,1593387537,49.71,72.59,57.2,67,75,26.84
3667070,timbiqui,CO,1593387537,2.77,-77.67,76.6,85,95,2.82
1798760,pingliang,CN,1593387537,35.54,106.69,71.91,62,7,1.14
4615145,cookeville,US,1593387529,36.16,-85.5,75.99,88,1,3.36
3423146,ilulissat,GL,1593387537,69.22,-51.1,39.2,93,83,5.82
2686469,ornskoldsvik,SE,1593387537,63.29,18.72,57.2,54,15,4.7
3897347,calama,CL,1593387537,-22.47,-68.93,57.2,12,79,13.87
1651810,airai,TL,1593387537,-8.93,125.41,62.98,93,98,3.53
1272502,diu,IN,1593387538,20.71,70.98,85.33,79,99,11.68
6111862,port hardy,CA,1593387538,50.7,-127.42,66.2,63,20,14.99
2126199,cherskiy,RU,1593387538,68.75,161.3,49.28,56,32,17.78
293842,gat,IL,1593387538,31.61,34.76,73.99,83,0,3.83
3421319,nuuk,GL,1593387538,64.18,-51.72,44.6,75,10,8.05
583472,alakurtti,RU,1593387538,66.97,30.35,41.0,90,0,1.79
496358,severnyy,RU,1593387538,50.68,36.55,62.6,100,75,2.24
3175096,lasa,IT,1593387538,46.62,10.7,60.8,87,5,1.12
527321,mezen,RU,1593387538,65.85,44.24,40.98,75,89,5.68
2612529,stoholm,DK,1593387538,56.48,9.15,57.0,87,2,5.82
140463,birjand,IR,1593387539,32.87,59.22,68.0,16,0,9.17
915471,kalabo,ZM,1593387539,-14.97,22.68,54.7,43,0,5.68
4034551,faanui,PF,1593387539,-16.48,-151.75,76.26,78,100,22.37
2134814,sola,VU,1593387539,-13.88,167.55,82.4,83,75,17.07
2068110,kununurra,AU,1593387523,-15.77,128.73,60.8,23,22,13.42
4036284,alofi,NU,1593387539,-19.06,-169.92,80.6,78,38,12.75
3904906,santa cruz,BO,1593387539,-17.8,-63.17,60.8,82,90,2.24
2122605,okhotsk,RU,1593387539,59.38,143.3,54.86,72,1,7.99
2109701,auki,SB,1593387539,-8.77,160.7,85.96,65,61,0.31
1506268,gornopravdinsk,RU,1593387539,60.05,69.9,47.39,89,66,2.93
3698359,chicama,PE,1593387540,-7.84,-79.15,64.87,80,25,5.57
53654,mogadishu,SO,1593387351,2.04,45.34,78.4,86,71,16.37
3985710,cabo san lucas,MX,1593387540,22.89,-109.91,87.01,58,90,8.05
287286,muscat,OM,1593387540,23.61,58.59,96.8,47,39,5.82
3570392,le vauclin,MQ,1593387540,14.55,-60.84,82.4,78,20,8.05
1636308,manokwari,ID,1593387540,-0.87,134.08,81.54,66,72,2.19
157014,kisanga,TZ,1593387540,-7.44,37.7,68.88,90,1,1.45
2537881,asfi,MA,1593387540,32.3,-9.24,68.79,89,2,10.54
2381334,atar,MR,1593387541,20.52,-13.05,97.32,10,0,13.62
5952330,ferme-neuve,CA,1593387541,46.7,-75.45,67.89,87,6,3.44
5044290,saint anthony,US,1593387541,45.02,-93.22,84.2,58,90,6.93
1701054,marawi,PH,1593387541,8.0,124.29,75.99,93,100,4.0
1067565,beloha,MG,1593387541,-25.17,45.05,62.64,92,0,4.76
1650527,balikpapan,ID,1593387541,-1.27,116.83,75.2,100,40,4.7
1514792,gazojak,TM,1593387541,41.19,61.4,68.2,25,99,2.75
2972695,thouars,FR,1593387541,46.98,-0.22,64.0,98,64,7.45
1486321,yar-sale,RU,1593387542,66.83,70.83,52.21,67,96,23.62
1507636,chunskiy,RU,1593387542,56.08,99.63,65.3,90,98,7.63
5110365,broome,US,1593387542,42.25,-75.83,73.4,64,1,10.29
2229681,lagdo,CM,1593387542,9.05,13.73,74.79,92,69,1.99
2618795,klaksvik,FO,1593387542,62.23,-6.59,55.4,76,71,20.8
2012349,krasnyy chikoy,RU,1593387542,50.36,108.75,65.32,79,51,1.43
2071860,esperance,AU,1593387542,-33.87,121.9,51.8,81,90,14.99
3372964,lagoa,PT,1593387542,39.05,-27.98,67.48,94,0,8.25
3838233,salta,AR,1593387542,-24.79,-65.41,48.2,70,18,3.36
1627035,simpang,ID,1593387542,-1.27,104.08,74.93,92,42,3.85
2548885,fez,MA,1593387273,34.04,-5.0,75.2,60,0,9.17
1633419,padang,ID,1593387543,-0.95,100.35,78.49,77,62,3.02
3347019,namibe,AO,1593387543,-15.2,12.15,66.74,65,0,3.51
2527087,tiznit,MA,1593387543,29.58,-9.5,69.19,49,0,0.34
686090,asau,RO,1593387543,46.43,26.4,62.01,91,4,5.23
3628473,san cristobal,VE,1593387543,7.77,-72.22,80.6,61,40,20.8
1621313,ambulu,ID,1593387543,-8.35,113.61,76.5,86,59,4.16
5991056,kenora,CA,1593387261,49.82,-94.43,86.0,37,40,17.22
1605483,that phanom,TH,1593387543,16.94,104.71,80.6,88,20,5.82
1582886,dong hoi,VN,1593387544,17.48,106.6,84.07,70,20,7.07
7281807,seddon,AU,1593387544,-37.81,144.89,42.01,93,0,4.16
3521941,panuco,MX,1593387544,22.05,-98.17,86.0,79,75,6.93
1528998,yumen,CN,1593387544,40.28,97.2,73.99,28,0,9.44
4938048,grafton,US,1593387544,42.21,-71.69,68.0,88,90,11.41
516588,nyrob,RU,1593387544,60.73,56.72,42.04,94,100,8.79
1521315,lisakovsk,KZ,1593387544,52.54,62.49,47.84,74,2,9.28
1337618,manadhoo,MV,1593387544,5.77,73.38,82.9,79,0,14.52
3121238,grado,ES,1593387545,43.39,-6.07,62.01,93,75,5.82
2063042,port hedland,AU,1593387545,-20.32,118.57,57.2,71,2,6.93
2191562,dunedin,NZ,1593387452,-45.87,170.5,48.99,78,100,1.99
3385899,tutoia,BR,1593387545,-2.76,-42.27,78.58,88,18,9.06
6071900,melita,CA,1593387545,49.27,-101.0,82.0,50,88,8.99
1216475,muborak,UZ,1593387545,39.26,65.15,68.31,24,47,12.75
3466980,caravelas,BR,1593387545,-17.71,-39.25,73.15,84,8,8.16
1684245,tagusao,PH,1593387545,9.19,117.81,80.73,80,100,5.68
86049,jalu,LY,1593387546,29.03,21.55,76.32,47,0,6.06
6173220,valleyview,CA,1593387546,55.07,-117.29,60.33,80,100,5.14
1259385,port blair,IN,1593387546,11.67,92.75,82.26,78,98,9.1
2121197,sinegorye,RU,1593387546,62.08,150.48,76.15,33,83,3.51
5134295,roma,US,1593387546,43.21,-75.46,77.0,61,1,11.41
6067472,marystown,CA,1593387546,47.17,-55.15,58.55,93,100,5.88
3620266,corn island,NI,1593387546,12.17,-83.04,82.02,82,100,19.6
2024626,dzhebariki-khaya,RU,1593387546,62.22,135.8,84.4,38,11,1.68
4697330,hewitt,US,1593387546,31.46,-97.2,86.0,58,1,19.46
3446880,tapes,BR,1593387547,-30.67,-51.4,51.75,76,38,7.25
3867427,mayor pablo lagerenza,PY,1593387547,-19.93,-60.77,64.33,56,79,5.48
2012530,zhigansk,RU,1593387547,66.77,123.37,68.65,53,0,17.63
6096551,pangnirtung,CA,1593387547,66.15,-65.71,47.68,62,37,3.04
5166009,painesville,US,1593387547,41.72,-81.25,77.0,57,1,4.56
3466165,cidreira,BR,1593387502,-30.18,-50.21,55.38,63,9,7.78
2070998,geraldton,AU,1593387547,-28.77,114.6,66.2,63,40,19.46
986717,kruisfontein,ZA,1593387547,-34.0,24.73,50.43,74,30,10.04
1634614,nabire,ID,1593387548,-3.37,135.48,79.3,82,100,2.39
2610343,vestmanna,FO,1593387548,62.16,-7.17,55.4,76,64,20.8
2446796,bilma,NE,1593387548,18.69,12.92,84.52,15,0,5.06
2034638,sujiatun,CN,1593387548,41.66,123.34,71.6,83,100,6.71
1162862,uthal,PK,1593387548,25.81,66.62,83.59,76,61,3.78
299900,talas,TR,1593387548,38.69,35.55,57.2,82,0,2.24
1853174,sakaiminato,JP,1593387548,35.55,133.23,75.2,83,75,3.36
2165828,gatton,AU,1593387548,-27.55,152.28,59.0,82,0,4.7
1272653,dibai,IN,1593387549,28.22,78.25,86.86,69,70,14.58
6150293,smoky lake,CA,1593387549,54.12,-112.47,66.0,75,98,5.99
2522325,aguimes,ES,1593387549,27.91,-15.45,73.4,73,75,23.04
3461484,igreja nova,BR,1593387549,-10.13,-36.66,70.63,91,1,4.38
5850554,makakilo city,US,1593387549,21.35,-158.09,87.8,58,1,11.41
6113406,prince rupert,CA,1593387549,54.32,-130.32,57.2,87,1,10.29
161901,kaka,TM,1593387549,37.35,59.61,68.77,23,57,2.62
2139521,noumea,NC,1593387415,-22.28,166.46,71.6,53,1,5.82
3452640,porto seguro,BR,1593387549,-16.45,-39.06,71.6,83,40,2.24
3421765,nanortalik,GL,1593387550,60.14,-45.24,40.26,86,47,10.36
1059051,miandrivazo,MG,1593387550,-19.52,45.47,71.19,69,0,1.5
3571913,marsh harbour,BS,1593387313,26.54,-77.06,82.58,69,80,8.03
1502073,krasnoselkup,RU,1593387550,65.7,82.47,58.64,73,72,24.36
2294915,takoradi,GH,1593387550,4.88,-1.76,76.26,88,87,12.88
2509491,villarrobledo,ES,1593387550,39.27,-2.6,75.0,56,0,7.0
6137462,saint-augustin,CA,1593387550,51.23,-58.65,54.88,77,4,18.9
1271215,gidam,IN,1593387550,18.98,81.4,77.0,87,96,0.94
3992842,petatlan,MX,1593387551,17.52,-101.27,91.4,59,40,9.17
286245,sur,OM,1593387551,22.57,59.53,84.67,72,56,14.2
5126787,middle island,US,1593387521,40.88,-72.94,77.0,69,1,6.93
502903,rameshki,RU,1593387551,57.34,36.05,47.93,86,1,5.37
1855612,nara,JP,1593387551,34.69,135.8,78.01,69,1,2.24
2317397,bandundu,CD,1593387551,-3.32,17.37,78.93,51,25,1.7
3871336,santiago,CL,1593387457,-33.46,-70.65,53.6,66,90,3.36
4542975,moore,US,1593387495,35.34,-97.49,84.99,70,75,21.92
3580733,bodden town,KY,1593387552,19.28,-81.25,87.8,74,20,10.29
3412093,vestmannaeyjar,IS,1593387490,63.44,-20.27,51.1,94,100,11.12
4992232,escanaba,US,1593387332,45.75,-87.06,75.2,50,1,5.82
1501377,kungurtug,RU,1593387552,50.6,97.52,60.67,59,0,1.28
5495360,tucumcari,US,1593387553,35.17,-103.72,102.2,10,1,26.4
3421719,narsaq,GL,1593387553,60.92,-46.05,50.0,61,87,14.99
3395458,maragogi,BR,1593387553,-9.01,-35.22,75.15,85,60,9.01
933633,khudumelapye,BW,1593387553,-23.88,24.75,47.41,48,0,7.16
733722,ahtopol,BG,1593387553,42.1,27.95,69.01,72,0,3.36
1019760,bethal,ZA,1593387553,-26.46,29.47,35.01,82,0,1.48
1637001,luwuk,ID,1593387554,-0.95,122.79,79.23,77,100,5.12
764679,minsk mazowiecki,PL,1593387554,52.18,21.57,66.0,94,68,2.64
3470137,belmonte,BR,1593387554,-15.86,-38.88,71.6,83,40,2.24
5563839,fortuna,US,1593387533,40.6,-124.16,64.0,59,20,23.04
3838859,rio gallegos,AR,1593387268,-51.62,-69.22,17.6,85,0,5.82
2138555,poum,NC,1593387554,-20.23,164.02,72.25,62,63,9.01
96994,dahuk,IQ,1593387554,36.87,42.99,79.29,25,0,4.27
5866583,kodiak,US,1593387546,57.79,-152.41,55.4,62,90,9.17
1701410,manubul,PH,1593387554,5.47,120.8,80.08,79,100,11.5
2315417,inongo,CD,1593387554,-1.95,18.27,71.78,73,68,3.98
1791539,wencheng,CN,1593387555,33.06,113.8,74.91,79,55,8.95
3455461,palmares do sul,BR,1593387555,-30.26,-50.51,52.38,68,11,6.91
2167426,emerald,AU,1593387555,-23.53,148.17,64.4,72,40,6.93
5746545,portland,US,1593387466,45.52,-122.68,72.0,46,40,12.75
1733432,kota kinabalu,MY,1593387434,5.97,116.07,75.2,83,40,4.7
3911925,la paz,BO,1593387503,-16.5,-68.15,46.4,22,0,5.82
4031742,egvekinot,RU,1593387555,66.32,-179.17,37.38,77,97,10.4
656820,iisalmi,FI,1593387555,63.56,27.19,55.4,71,5,6.93
4031637,lavrentiya,RU,1593387556,65.58,-171.0,40.96,74,52,14.58
3354071,oranjemund,NA,1593387556,-28.55,16.43,55.6,73,0,14.67
3453586,piranhas,BR,1593387556,-16.43,-51.82,73.27,58,44,6.04
5380437,pacific grove,US,1593387556,36.62,-121.92,64.0,67,90,13.87
1804651,kunming,CN,1593387433,25.04,102.72,72.0,93,75,11.18
113659,tabas,IR,1593387448,33.6,56.92,82.4,20,0,2.24
1812256,dongsheng,CN,1593387556,39.82,109.98,66.76,47,48,11.32
4328010,houma,US,1593387307,29.6,-90.72,89.01,74,40,6.93
1715335,davila,PH,1593387557,18.47,120.58,80.6,88,75,4.7
3520994,puerto escondido,MX,1593387557,15.85,-97.07,87.8,66,40,6.93
1269993,hojai,IN,1593387557,26.0,92.87,76.5,92,52,4.18
1791748,wanxian,CN,1593387557,30.8,108.39,77.22,82,65,1.19
6067747,matagami,CA,1593387557,49.75,-77.63,78.8,41,1,10.29
1267390,kavaratti,IN,1593387557,10.57,72.64,83.77,80,100,20.47
2026659,bira,RU,1593387557,49.0,132.47,71.58,62,100,3.02
2091996,madang,PG,1593387557,-5.22,145.8,83.53,69,93,2.53
3395981,maceio,BR,1593387470,-9.67,-35.74,71.6,100,40,2.24
1805857,jieshi,CN,1593387558,22.81,115.83,83.68,79,100,6.04
2171099,codrington,AU,1593387558,-38.27,141.97,48.0,74,6,5.79
1516589,zhezkazgan,KZ,1593387558,47.8,67.71,66.4,40,79,15.95
1722028,cabadiangan,PH,1593387558,9.75,122.47,78.37,81,100,5.12
3576994,cockburn town,TC,1593387558,21.46,-71.14,84.2,70,40,9.17
2063036,port lincoln,AU,1593387558,-34.73,135.87,53.46,54,0,16.46
494304,shipitsyno,RU,1593387558,61.28,46.52,38.5,95,71,4.45
3832899,viedma,AR,1593387558,-40.81,-63.0,41.38,76,100,6.42
6620339,karratha,AU,1593387558,-20.74,116.85,70.2,34,22,6.82
2612689,stege,DK,1593387559,54.99,12.28,61.0,1,99,4.07
2038569,baicheng,CN,1593387559,45.62,122.82,64.99,66,53,3.0
518602,novomichurinsk,RU,1593387559,54.04,39.75,60.57,96,100,9.6
1810979,fuling,CN,1593387559,29.7,107.39,78.13,83,94,0.76
2135517,norsup,VU,1593387559,-16.07,167.38,80.6,83,75,6.93
2094027,kieta,PG,1593387559,-6.22,155.63,85.41,61,27,3.85
3395497,maracacume,BR,1593387559,-2.04,-45.96,74.44,94,83,2.39
2636790,stornoway,GB,1593387559,58.21,-6.39,54.0,100,86,5.82
3398480,gurupa,BR,1593387560,-1.41,-51.64,74.98,93,95,3.04
472490,volodarskiy,RU,1593387560,46.4,48.54,68.0,64,0,8.95
1791779,wanning,CN,1593387560,18.8,110.4,83.79,78,37,7.11
5130076,oswego,US,1593387560,43.45,-76.15,75.0,69,75,10.29
3899695,ancud,CL,1593387560,-41.87,-73.82,46.99,100,90,2.24
2031964,darhan,MN,1593387560,49.49,105.92,66.36,70,100,3.27
179634,takaungu,KE,1593387560,-3.68,39.86,75.63,86,12,12.59
3680539,cuaspud,CO,1593387560,0.86,-77.73,47.68,88,84,4.14
2514301,mao,ES,1593387560,39.89,4.27,71.6,94,0,4.7
2467813,rafraf,TN,1593387561,37.19,10.18,73.4,88,20,4.7
3544091,pinar del rio,CU,1593387561,22.42,-83.7,82.45,75,34,6.13
607610,zhanaozen,KZ,1593387561,43.3,52.8,66.61,63,97,10.87
2014836,tupik,RU,1593387561,54.43,119.93,67.8,65,78,2.06
3193726,pag,HR,1593387561,44.45,15.06,62.6,88,3,1.12
1498283,mugur-aksy,RU,1593387561,50.35,90.5,52.7,77,100,3.89
2112802,hasaki,JP,1593387561,35.73,140.83,77.0,73,40,8.05
5364271,laguna,US,1593387561,38.42,-121.42,82.99,32,1,11.41
2177069,ballina,AU,1593387561,-28.87,153.57,57.2,82,40,9.17
502738,rassvet,RU,1593387562,46.83,40.75,66.65,55,0,6.93
2630299,hofn,IS,1593387562,64.25,-15.21,54.36,62,94,24.99
1490085,tarko-sale,RU,1593387562,64.92,77.78,55.99,94,57,24.7
3839307,rawson,AR,1593387562,-43.3,-65.1,41.83,65,100,5.93
1499053,megion,RU,1593387562,61.03,76.11,53.6,87,75,15.66
2128975,nemuro,JP,1593387562,43.32,145.57,50.36,92,99,14.92
2155742,narrabri,AU,1593387562,-30.32,149.78,50.0,71,13,9.17
3355672,luderitz,NA,1593387563,-26.65,15.16,57.2,71,0,9.17
100926,umm lajj,SA,1593387563,25.02,37.27,84.15,53,9,10.16
3668012,simiti,CO,1593387563,7.96,-73.94,78.37,85,100,2.53
2027806,amazar,RU,1593387563,53.86,120.88,72.28,61,26,1.28
162158,baherden,TM,1593387563,38.44,57.43,75.31,18,63,0.89
1635164,mlonggo,ID,1593387563,-6.53,110.7,75.2,83,20,3.36
2014078,urusha,RU,1593387563,54.05,122.9,74.25,52,29,1.95
3448903,sao joao da barra,BR,1593387563,-21.64,-41.05,68.99,85,94,10.04
1252795,yanam,IN,1593387564,16.73,82.22,81.64,89,100,1.01
3530103,cozumel,MX,1593387559,20.51,-86.95,86.0,74,40,6.93
3924895,placido de castro,BR,1593387564,-10.34,-67.19,73.96,85,52,2.46
3625066,zaraza,VE,1593387564,9.35,-65.32,75.69,90,38,6.29
4362001,mayo,US,1593387564,38.89,-76.51,84.99,62,1,3.36
1715015,dicabisagan,PH,1593387564,17.08,122.42,84.24,71,100,8.99
3372472,vila franca do campo,PT,1593387564,37.72,-25.43,68.0,82,40,5.82
2732547,vila nova de famalicao,PT,1593387428,41.41,-8.52,64.99,100,75,4.7
732015,dospat,BG,1593387565,41.65,24.17,53.37,68,0,3.09
2084442,vanimo,PG,1593387565,-2.67,141.3,82.63,75,74,3.15
2128815,obihiro,JP,1593387565,42.92,143.2,57.2,87,75,2.24
5972762,hay river,CA,1593387565,60.82,-115.8,66.2,42,40,8.05
4389658,harrisonville,US,1593387565,38.65,-94.35,87.8,58,75,6.93
1495586,parabel,RU,1593387565,58.7,81.48,56.14,70,13,14.76
780687,berlevag,NO,1593387565,70.86,29.09,41.92,85,96,6.82
3385077,conde,BR,1593387566,-7.26,-34.91,73.4,100,75,9.17
2194098,ahipara,NZ,1593387566,-35.17,173.17,58.28,74,18,19.53
2039557,khasan,RU,1593387566,42.43,130.64,61.48,91,96,3.47
4231997,avera,US,1593387566,33.19,-82.53,91.4,49,40,9.17
1812728,dingzhou,CN,1593387566,38.51,115.0,71.6,88,40,4.47
826558,surok,RU,1593387566,56.45,48.12,48.2,93,40,6.71
3421193,paamiut,GL,1593387566,61.99,-49.67,39.99,88,49,13.44
920233,chibombo,ZM,1593387566,-14.66,28.07,56.03,46,0,3.6
1491197,spassk,RU,1593387386,52.75,87.75,53.74,94,100,1.19
1687186,sarangani,PH,1593387567,5.4,125.46,80.04,78,100,15.41
2439376,tahoua,NE,1593387567,14.89,5.27,86.0,66,77,9.17
5843495,worland,US,1593387567,44.02,-107.96,73.99,46,1,4.7
2109528,buala,SB,1593387567,-8.14,159.59,85.86,67,54,5.21
2098329,daru,PG,1593387567,-9.08,143.21,79.61,83,58,16.73
6138980,saint-raymond,CA,1593387567,45.47,-73.61,72.0,73,90,16.11
1510689,baykit,RU,1593387567,61.67,96.37,71.44,58,100,3.4
1861280,itoman,JP,1593387567,26.12,127.67,84.2,89,40,9.17
3448455,sao miguel do araguaia,BR,1593387567,-13.28,-50.16,74.98,44,7,3.04
5478673,meadow lake,US,1593387567,34.8,-106.54,91.99,9,75,6.93
4033356,tiarei,PF,1593387568,-17.53,-149.33,86.0,45,40,6.93
2136825,isangel,VU,1593387568,-19.55,169.27,75.2,78,90,5.82
1513491,komsomolskiy,UZ,1593387568,40.43,71.72,64.4,39,0,9.17
5870133,nome,US,1593387568,64.5,-165.41,46.4,87,90,8.05
1847947,shingu,JP,1593387568,33.73,135.98,75.2,73,0,4.7
371466,ler,SS,1593387568,8.3,30.14,75.85,77,20,2.8
2412408,nioro,GM,1593387568,13.35,-15.75,79.75,74,46,11.01
2132606,samarai,PG,1593387568,-10.62,150.67,78.6,84,77,16.62
962367,richards bay,ZA,1593387569,-28.78,32.04,61.84,68,0,5.23
3517970,pochutla,MX,1593387569,15.74,-96.47,89.6,52,90,11.41
3868626,valparaiso,CL,1593387569,-33.04,-71.63,53.6,100,90,5.82
3897774,buin,CL,1593387569,-33.73,-70.75,53.6,76,90,6.93
3354077,opuwo,NA,1593387569,-18.06,13.84,56.77,37,0,7.83
5887916,athabasca,CA,1593387457,54.72,-113.29,62.46,74,86,14.05
3533462,acapulco,MX,1593387482,16.86,-99.89,87.8,66,40,10.29
1572151,nha trang,VN,1593387490,12.25,109.18,80.6,88,40,1.12
2025456,chernyshevskiy,RU,1593387569,63.01,112.47,67.6,61,87,4.94
1638775,payo,ID,1593387570,-3.75,103.64,72.63,92,20,2.1
5973108,hearst,CA,1593387406,49.68,-83.67,81.34,42,34,1.14
921786,mitsamiouli,KM,1593387570,-11.38,43.28,77.85,72,0,3.56
3386213,touros,BR,1593387476,-5.2,-35.46,77.0,94,40,6.93
2439155,tanout,NE,1593387570,14.97,8.89,89.64,31,0,7.23
2381972,adrar,MR,1593387570,20.5,-10.07,97.38,9,0,13.87
286621,salalah,OM,1593387570,17.02,54.09,84.2,89,40,3.36
3675987,los palmitos,CO,1593387570,9.38,-75.27,76.8,89,100,5.75
2108502,honiara,SB,1593387571,-9.43,159.95,87.8,70,40,5.82
3156980,floro,NO,1593387571,61.6,5.03,59.0,87,40,6.93
2019951,mirnyy,RU,1593387571,62.54,113.96,68.0,64,53,6.71
1257528,samdari,IN,1593387571,25.82,72.58,88.16,59,20,17.58
64814,bandarbeyla,SO,1593387571,9.49,50.81,80.98,70,2,28.34
4033557,tautira,PF,1593387571,-17.73,-149.15,86.0,45,40,6.93
146214,pafos,CY,1593387571,34.77,32.42,71.6,94,0,4.7
1259012,raichur,IN,1593387571,16.2,77.37,79.83,78,100,9.48
3377301,mabaruma,GY,1593387571,8.2,-59.78,75.63,90,41,3.78
2161515,kiama,AU,1593387572,-34.68,150.87,55.0,87,78,3.0
4705349,laredo,US,1593387364,27.51,-99.51,93.2,49,1,13.87
895269,beitbridge,ZW,1593387572,-22.22,30.0,58.55,53,0,20.27
3520064,salina cruz,MX,1593387288,16.17,-95.2,86.18,66,51,5.5
4844309,torrington,US,1593387536,41.8,-73.12,73.99,90,91,2.82
1695751,panacan,PH,1593387572,9.25,118.41,77.0,94,90,4.7
215976,ilebo,CD,1593387572,-4.32,20.58,73.29,66,17,0.89
2347758,bara,NG,1593387572,10.37,10.73,74.48,83,97,10.27
104515,mecca,SA,1593387519,21.43,39.83,90.88,22,71,4.43
5711149,altamont,US,1593387311,42.21,-121.74,62.01,36,20,19.46
1797535,qiongshan,CN,1593387573,20.01,110.35,80.6,94,88,4.47
1045114,inhambane,MZ,1593387573,-23.86,35.38,68.22,80,0,10.25
5861897,fairbanks,US,1593387573,64.84,-147.72,64.4,42,40,17.22
1246294,galle,LK,1593387573,6.04,80.22,81.84,82,51,14.03
343292,asosa,ET,1593387573,10.07,34.53,61.36,87,88,3.42
1268159,kanchipuram,IN,1593387573,12.83,79.72,80.6,83,40,2.24
3577430,road town,VG,1593387573,18.42,-64.62,84.2,74,40,6.93
3374083,bathsheba,BB,1593387574,13.22,-59.52,82.4,78,20,14.99
1498087,nadym,RU,1593387574,65.53,72.52,50.09,95,100,18.86
1254046,tura,IN,1593387574,25.52,90.22,73.94,97,97,5.66
2126682,bilibino,RU,1593387574,68.05,166.44,47.05,53,79,6.89
3893629,coquimbo,CL,1593387574,-29.95,-71.34,53.6,93,90,4.7
2240449,luanda,AO,1593387430,-8.84,13.23,69.8,88,40,3.36
1808106,hongjiang,CN,1593387574,27.11,110.0,82.11,73,99,7.27
2122493,omsukchan,RU,1593387574,62.53,155.8,68.31,32,84,7.76
3671519,puerto carreno,CO,1593387574,6.19,-67.49,80.6,83,20,5.82
2139259,ouegoa,NC,1593387575,-20.35,164.43,75.13,53,54,6.73
2155562,nelson bay,AU,1593387575,-32.72,152.15,53.01,93,75,9.17
1258715,ramban,IN,1593387575,33.25,75.25,67.24,54,8,8.72
5356012,healdsburg,US,1593387575,38.61,-122.87,84.99,17,1,19.46
779554,honningsvag,NO,1593387575,70.98,25.97,42.98,85,97,12.1
363656,yambio,SS,1593387575,4.57,28.4,66.99,92,56,1.88
3451138,rio grande,BR,1593387325,-32.03,-52.1,39.99,94,66,5.23
1512019,aksarka,RU,1593387575,66.56,67.8,47.82,71,100,18.88
6316343,alta floresta,BR,1593387575,-9.88,-56.09,76.17,60,58,3.87
1648759,bima,ID,1593387576,-8.47,118.72,77.47,80,100,4.34
1899102,nagato,JP,1593387576,34.38,131.2,75.2,83,75,4.7
1272783,dhemaji,IN,1593387576,27.48,94.58,77.16,86,31,1.97
332746,korem,ET,1593387576,12.51,39.52,59.0,68,10,9.15
5815135,washington,US,1593387289,47.5,-120.5,70.0,37,80,4.0
214389,kaniama,CD,1593387576,-7.57,24.18,70.29,44,35,3.78
1855540,naze,JP,1593387576,28.37,129.48,82.4,100,75,9.17
